id;name;latitude;longitude;geometry;memorial_type;inscription;type
64776777;Kaiserschuetzen 1917;45.9368351;11.0951798;POINT (11.0951798 45.9368351);war_memorial;;memorialwar_memorial
248947102;Monumento ad Alcide Degasperi;46.0678336;11.1275793;POINT (11.1275793 46.0678336);;;
268437617;Caduti della Resistenza in Albania;46.0660591;11.1255131;POINT (11.1255131 46.0660591);statue;;memorialstatue
269894250;Unnamed;45.8857878;10.8435203;POINT (10.8435203 45.8857878);bust;;memorialbust
269894274;San Giovanni Napomuceno;45.884126;10.8391446;POINT (10.8391446 45.884126);statue;;memorialstatue
270099585;Campana dei Caduti;45.8740208;11.0389098;POINT (11.0389098 45.8740208);;;
276248562;Monumento ai Caduti;46.1310995;11.2463352;POINT (11.2463352 46.1310995);war_memorial;;memorialwar_memorial
292751346;Theodor Christomannos;46.413825;11.6230151;POINT (11.6230151 46.413825);;;
298491630;Castel Saiori;45.8003546;11.0058349;POINT (11.0058349 45.8003546);;;
306399106;Unnamed;45.8797994;11.0413851;POINT (11.0413851 45.8797994);;;
307705093;Castel Corno;45.8891533;10.9916134;POINT (10.9916134 45.8891533);;;
322065419;Armistizio del 29-10-1918;45.8180301;11.0111764;POINT (11.0111764 45.8180301);;;
322071391;Madonna del Cacciatore;45.7904782;11.0331347;POINT (11.0331347 45.7904782);;;
323204092;Unnamed;45.9029325;10.8608405;POINT (10.8608405 45.9029325);;;
335605395;Monumento alle Guide Alpine;46.230711;10.8274004;POINT (10.8274004 46.230711);sculpture;;memorialsculpture
335647222;Monumento ai Caduti;45.8885145;10.6702788;POINT (10.6702788 45.8885145);;;
364991102;Madonnina del Lago;45.9524269;11.0196472;POINT (11.0196472 45.9524269);;;
379532622;Unnamed;45.8643541;10.8854771;POINT (10.8854771 45.8643541);;;
402814579;Monumento ai caduti;45.8579426;10.8993094;POINT (10.8993094 45.8579426);;;
412834792;Cros dei Francesi;46.1706715;11.0613118;POINT (11.0613118 46.1706715);;;
430368127;Memoriale Cesare Battisti e Fabio Filzi;45.8146632;11.124656;POINT (11.124656 45.8146632);;;
469267431;Unnamed;45.7694743;10.9662699;POINT (10.9662699 45.7694743);;;
520498906;Monumento ai caduti;45.7992343;11.179623;POINT (11.179623 45.7992343);;;
520499052;Tomba Generale Vittorio Emanuele Rossi;45.7938002;11.1844281;POINT (11.1844281 45.7938002);;;
520499474;Arco Romano;45.7926983;11.1854947;POINT (11.1854947 45.7926983);;;
540427490;Unnamed;45.9237397;10.6986613;POINT (10.6986613 45.9237397);;;
552935671;Castello di Segonzano;46.1865692;11.2513554;POINT (11.2513554 46.1865692);;;
616567418;Monumento ai caduti;45.8388729;10.9701187;POINT (10.9701187 45.8388729);;;
672805949;Adelpreto;45.8968793;11.0433165;POINT (11.0433165 45.8968793);;;
675334487;Monumento ai caduti;46.0492721;11.1439881;POINT (11.1439881 46.0492721);;;
701422166;Monumento ai caduti;45.8502703;10.8235693;POINT (10.8235693 45.8502703);obelisk;;memorialobelisk
721098590;Cimitero militare monumentale austroungarico;46.0009878;10.6940124;POINT (10.6940124 46.0009878);;;
734227540;Unnamed;45.8718338;10.774629;POINT (10.774629 45.8718338);stele;;memorialstele
736936486;Kaiserschützen memorial;45.8279358;11.0518275;POINT (11.0518275 45.8279358);;;
739372013;Monumento ai Caduti;46.1518003;11.7975542;POINT (11.7975542 46.1518003);;;
748783526;Monumento dei caduti;45.8175742;10.9559581;POINT (10.9559581 45.8175742);sculpture;;memorialsculpture
754103250;Monumento ad Alois Storch;45.895813;10.8586307;POINT (10.8586307 45.895813);war_memorial;;memorialwar_memorial
765601131;Ponte Balandino;46.0504072;10.8997846;POINT (10.8997846 46.0504072);;;
769164995;Unnamed;45.8567054;10.8210897;POINT (10.8210897 45.8567054);;;
789964234;Al Fante d'Italia;45.8889558;11.0357545;POINT (11.0357545 45.8889558);war_memorial;;memorialwar_memorial
796380013;Fausto Coppi;46.4881479;11.8114019;POINT (11.8114019 46.4881479);;;
813242389;Unnamed;45.783238;10.9122978;POINT (10.9122978 45.783238);obelisk;;memorialobelisk
833834675;Unnamed;45.9327152;10.5363008;POINT (10.5363008 45.9327152);;;
851097491;Unnamed;45.8846144;11.0179589;POINT (11.0179589 45.8846144);;;
852064195;Unnamed;46.2638672;11.0862417;POINT (11.0862417 46.2638672);;;
852064717;Masi ai suoi caduti;46.245645;11.0678022;POINT (11.0678022 46.245645);;;
859540405;Unnamed;46.2132802;11.0927704;POINT (11.0927704 46.2132802);;;
859560024;Luogo di nascita di Giovanni Antonio Scopoli;46.2910507;11.4605863;POINT (11.4605863 46.2910507);;;
888671497;Caduti di Nassirya;46.0855668;11.1188142;POINT (11.1188142 46.0855668);sculpture;;memorialsculpture
928357843;Pio XII;46.2114387;11.0937177;POINT (11.0937177 46.2114387);;;
930522302;Giacomo Bresadola;46.0721582;11.1201432;POINT (11.1201432 46.0721582);bust;;memorialbust
930522360;Giosuè Carducci;46.0720418;11.1202343;POINT (11.1202343 46.0720418);bust;;memorialbust
930522432;Antonio Gazzoletti;46.0722132;11.12046;POINT (11.12046 46.0722132);bust;;memorialbust
930522481;Giuseppe Verdi;46.0717375;11.1198398;POINT (11.1198398 46.0717375);bust;;memorialbust
936516624;Giovanni Canestrini;46.0705151;11.1213585;POINT (11.1213585 46.0705151);bust;;memorialbust
939851061;Unnamed;46.0694905;11.1185666;POINT (11.1185666 46.0694905);;;
941969403;Monumento a Don Grazioli;46.1397591;11.1114677;POINT (11.1114677 46.1397591);statue;;memorialstatue
948758492;Enrico Conci;46.0723389;11.1208411;POINT (11.1208411 46.0723389);bust;;memorialbust
950503722;Guglielmo Ranzi;46.0712885;11.120702;POINT (11.120702 46.0712885);plaque;;memorialplaque
950503737;Famiglia Trentina;46.0703897;11.120492;POINT (11.120492 46.0703897);sculpture;;memorialsculpture
950503807;Eusebio Francesco Chini;46.0709691;11.1206415;POINT (11.1206415 46.0709691);obelisk;;memorialobelisk
956203583;Unnamed;46.2152989;11.0929332;POINT (11.0929332 46.2152989);;;
956203626;Al Bersagliere;46.2116303;11.0941873;POINT (11.0941873 46.2116303);;;
959911027;Giovanni Prati;46.0717848;11.1210941;POINT (11.1210941 46.0717848);bust;;memorialbust
960695300;Antonio Rosmini;46.0609814;11.1251935;POINT (11.1251935 46.0609814);plaque;;memorialplaque
960695319;Unnamed;46.0730684;11.119743;POINT (11.119743 46.0730684);;;
960695321;Monumento ai ferrovieri;46.0730331;11.1197147;POINT (11.1197147 46.0730331);war_memorial;Ai ferrovieri caduti per la patria e sul lavoro;memorialwar_memorial
966971024;Luigi Negrelli;46.0719648;11.1209339;POINT (11.1209339 46.0719648);sculpture;;memorialsculpture
973022397;Unnamed;46.2161285;11.0877354;POINT (11.0877354 46.2161285);;;
975205647;Unnamed;46.2995861;11.4497067;POINT (11.4497067 46.2995861);war_memorial;;memorialwar_memorial
975242535;Monumento ai Caduti;46.2885127;11.4613463;POINT (11.4613463 46.2885127);war_memorial;;memorialwar_memorial
975266382;Unnamed;46.2741166;11.4168664;POINT (11.4168664 46.2741166);war_memorial;;memorialwar_memorial
975288676;Unnamed;46.0770972;11.11957;POINT (11.11957 46.0770972);obelisk;;memorialobelisk
1010809755;Martino Martini;46.0630917;11.1239357;POINT (11.1239357 46.0630917);statue;;memorialstatue
1024749083;Monumento al Marinaio;45.8840151;10.8402593;POINT (10.8402593 45.8840151);;;
1024752266;Unnamed;45.8692439;10.8764661;POINT (10.8764661 45.8692439);stele;;memorialstele
1037290924;Enea Silvio Piccolomini;46.0675519;11.1200759;POINT (11.1200759 46.0675519);bust;;memorialbust
1079859437;Unnamed;46.209071;11.093628;POINT (11.093628 46.209071);;;
1100568084;Monumento ai Caduti;46.3527507;10.9144089;POINT (10.9144089 46.3527507);war_memorial;;memorialwar_memorial
1122600616;Giovanni Nepomuceno;46.1938328;11.1332573;POINT (11.1332573 46.1938328);;;
1122600753;Giovanni Nepomuceno;46.1949838;11.1329545;POINT (11.1329545 46.1949838);;;
1126325611;Castel Barco;45.9306089;11.0576106;POINT (11.0576106 45.9306089);;;
1132433117;Monumento ai caduti;45.9349983;11.094176;POINT (11.094176 45.9349983);war_memorial;CALLIANO in memoria di coloro che non sono tornati;memorialwar_memorial
1136484210;Unnamed;46.2507819;11.1682994;POINT (11.1682994 46.2507819);;;
1156296729;Unnamed;46.0203919;11.1270777;POINT (11.1270777 46.0203919);statue;;memorialstatue
1162579906;Unnamed;46.171033;11.2474095;POINT (11.2474095 46.171033);;;
1297477206;Gardolo ai suoi caduti;46.1082602;11.1114517;POINT (11.1114517 46.1082602);war_memorial;;memorialwar_memorial
1300140587;Castello di Nomi;45.9308233;11.0733962;POINT (11.0733962 45.9308233);;;
1302589524;Unnamed;46.0720439;11.112492;POINT (11.112492 46.0720439);;;
1307223891;Cannone della Batteria Battisti;46.0729287;11.1132622;POINT (11.1132622 46.0729287);war_memorial;;memorialwar_memorial
1311009128;Santa Chiara;46.0577667;11.1327771;POINT (11.1327771 46.0577667);statue;;memorialstatue
1313426815;Unnamed;45.804498;10.8915345;POINT (10.8915345 45.804498);;;
1351405865;Unnamed;46.1664168;11.1098139;POINT (11.1098139 46.1664168);;;
1362741221;Altare di Papa Giovanni Paolo II;46.1677914;10.5663573;POINT (10.5663573 46.1677914);stone;A perenne ricordo della visita di Papa Giovanni Paolo II. 16-17 luglio 1984. Gli Alpini;memorialstone
1363980661;Unnamed;46.0714371;11.0601754;POINT (11.0601754 46.0714371);war_memorial;"Guerra1940-1945 |
Guerra A.O.I 1935-1936 |
Guerra Mondiale1914-1918";memorialwar_memorial
1381050980;Unnamed;46.2182198;11.0478546;POINT (11.0478546 46.2182198);;;
1381659946;Unnamed;45.916789;11.0614351;POINT (11.0614351 45.916789);;;
1392014621;Capitello di Sant'Antonio;45.9114997;11.0840245;POINT (11.0840245 45.9114997);;;
1392365853;Madonnina del Doss;46.301999;10.8773219;POINT (10.8773219 46.301999);;;
1432766653;US Navy Neptune 1957 Air Crash;46.2435287;11.878037;POINT (11.878037 46.2435287);;;
1451988615;Toss ai suoi caduti;46.2766199;11.0808855;POINT (11.0808855 46.2766199);war_memorial;;memorialwar_memorial
1525471505;Ai Caduti;46.1641485;11.0028366;POINT (11.0028366 46.1641485);;;
1559031342;Obice a.u. 305;45.8867283;11.045503;POINT (11.045503 45.8867283);war_memorial;;memorialwar_memorial
1563100696;Luigi Negrelli;46.1744657;11.8267027;POINT (11.8267027 46.1744657);;;
1563104190;Capitello San Antonio;46.1683593;11.7846801;POINT (11.7846801 46.1683593);;;
1590167269;Unnamed;46.299271;11.0311567;POINT (11.0311567 46.299271);;;
1593751061;Antonio Rosmini;45.8911293;11.0422036;POINT (11.0422036 45.8911293);bust;;memorialbust
1601137411;Memoriale Boninsegna 1916;45.8624129;10.8322553;POINT (10.8322553 45.8624129);;Volontario Guido Boninsegna caduto 10.04.1916;
1608853204;Unnamed;45.8773439;11.0971621;POINT (11.0971621 45.8773439);;;
1619079060;All'Alpino;45.8859952;11.0402165;POINT (11.0402165 45.8859952);;;
1660839180;Monumento ai Caduti;46.0850798;11.213966;POINT (11.213966 46.0850798);war_memorial;;memorialwar_memorial
1690521197;Unnamed;45.838636;10.7925557;POINT (10.7925557 45.838636);;;
1809162158;Fornace ai Caduti;46.1179665;11.2074617;POINT (11.2074617 46.1179665);war_memorial;;memorialwar_memorial
1816253199;Ruderi Castel Pradaglia;45.879245;11.0145877;POINT (11.0145877 45.879245);;;
1838686226;Unnamed;45.8418638;11.0076363;POINT (11.0076363 45.8418638);;;
1840022067;Unnamed;46.4045842;11.7081389;POINT (11.7081389 46.4045842);;Sentiero Attrezzato di Sas Aut dedicato a Franco Gadotti - Trento, 9.1.1955 Campanile Pradidali, 20.7.1976;
1862189121;Targa commemorativa Paolo Giordani;45.8185221;11.1369601;POINT (11.1369601 45.8185221);;;
1869952963;Unnamed;46.0862048;11.1597423;POINT (11.1597423 46.0862048);;;
1870055067;Castel Corona;46.2752225;11.0188891;POINT (11.0188891 46.2752225);;;
1951231997;Fritz Jung - 1711;45.9441216;11.2697902;POINT (11.2697902 45.9441216);;;
1977210639;Unnamed;46.0693887;11.2061361;POINT (11.2061361 46.0693887);;;
1987683774;Unnamed;46.274279;11.0509012;POINT (11.0509012 46.274279);;;
2028320546;Monumento ai Caduti;45.9203677;10.6147059;POINT (10.6147059 45.9203677);;;
2073143301;Cristo Pensante;46.307279;11.794503;POINT (11.794503 46.307279);;;
2084546738;Madonina;46.4013055;11.0507432;POINT (11.0507432 46.4013055);;;
2262103281;Statua di San Francesco;46.3679783;11.1062059;POINT (11.1062059 46.3679783);statue;;memorialstatue
2287289624;Eusebio Chini;46.304195;11.0713527;POINT (11.0713527 46.304195);;;
2367894141;Monumento ai caduti;45.9465134;10.6204569;POINT (10.6204569 45.9465134);;;
2371280671;Unnamed;46.0882116;11.130423;POINT (11.130423 46.0882116);;;
2468231574;Ai Caduti;46.1574892;11.1524504;POINT (11.1524504 46.1574892);;;
2482496403;Busto di Riccardo Zandonai;45.8910635;11.0432044;POINT (11.0432044 45.8910635);bust;;monumentbust
2484775401;Monumento ai caduti;45.8866828;11.0455536;POINT (11.0455536 45.8866828);war_memorial;;memorialwar_memorial
2484801874;Fontana Vecchia;46.0729515;11.4937739;POINT (11.4937739 46.0729515);;;
2490633533;Unnamed;45.9131128;10.9029133;POINT (10.9029133 45.9131128);;;
2535781340;Unnamed;46.2371277;11.9029923;POINT (11.9029923 46.2371277);;;
2858144515;Ex cimitero militare a.u.;45.858983;11.0838414;POINT (11.0838414 45.858983);;;
2872557495;Artigliere Giuseppe Spagnoli;45.8150426;11.0568435;POINT (11.0568435 45.8150426);;;
2872599781;127a Batteria bombarde;45.8211611;11.0533244;POINT (11.0533244 45.8211611);;;
2888955295;Unnamed;45.7741624;11.1564969;POINT (11.1564969 45.7741624);;;
3113340843;Unnamed;45.8618382;10.828104;POINT (10.828104 45.8618382);plaque;;memorialplaque
3127246070;Monumento ai Caduti di Tutte le Guerre;46.3354538;10.885545;POINT (10.885545 46.3354538);;;
3138365005;Unnamed;46.2841128;10.8709367;POINT (10.8709367 46.2841128);;;
3138384015;Amici della Montagna 1995;46.291841;10.8730039;POINT (10.8730039 46.291841);;;
3138518001;Lapidi in memoria di giovani partigiani (I Piccoli Maestri);46.0120053;11.5486935;POINT (11.5486935 46.0120053);plaque;url=https://www.caiasiago.it/sentiero-piccoli-maestri;memorialplaque
3139836799;Memoriale degli Arditi 23 Maggio 1918;45.8224374;11.0492402;POINT (11.0492402 45.8224374);;"AI COMBATTENTI
DEL I° REPARTO D'ASSALTO
CHE QUI CADDERO
IL 23-5-1918";
3309582310;Castello di Castellano;45.9213722;11.0061893;POINT (11.0061893 45.9213722);;;
3309824059;Unnamed;46.4874053;11.8121855;POINT (11.8121855 46.4874053);;;
3407628035;Monumento ai caduti;45.8635667;10.9478561;POINT (10.9478561 45.8635667);stele;Tiroler Standschutzen;memorialstele
3414873825;Osservatorio;45.8626941;10.9491236;POINT (10.9491236 45.8626941);;;
3491901400;Unnamed;45.8303086;10.5690204;POINT (10.5690204 45.8303086);stone;;memorialstone
3646765865;Unnamed;45.797854;11.1753731;POINT (11.1753731 45.797854);;;
3679475811;Unnamed;45.9335084;10.5912507;POINT (10.5912507 45.9335084);stone;CADUTI GARIBALDINI;memorialstone
3686101725;Memoriale Don Italo Girardi;46.1512012;11.6356115;POINT (11.6356115 46.1512012);;;
3694365836;Unnamed;45.9266801;11.3361557;POINT (11.3361557 45.9266801);war_memorial;;memorialwar_memorial
3704653919;Monumento ai Caduti;45.7392618;11.0664551;POINT (11.0664551 45.7392618);;;
3760589942;Unnamed;45.8863444;11.1606401;POINT (11.1606401 45.8863444);cross;;memorialcross
3780638158;Unnamed;45.7582118;11.1774148;POINT (11.1774148 45.7582118);stele;;memorialstele
3790737265;Forno Maso Emer;46.0488286;11.2760712;POINT (11.2760712 46.0488286);;;
3813729336;Lapide commemorativa;45.897028;10.7207048;POINT (10.7207048 45.897028);;;
3813885819;Unnamed;45.8966409;10.7202958;POINT (10.7202958 45.8966409);;;
3823187966;Fontana storica;46.0501359;11.2661003;POINT (11.2661003 46.0501359);;;
3904227788;Unnamed;45.8542796;10.5909663;POINT (10.5909663 45.8542796);;;
3918195752;monumento ai caduti;45.8839276;11.0702066;POINT (11.0702066 45.8839276);;;
3920799713;Unnamed;46.0787877;11.5748724;POINT (11.5748724 46.0787877);plaque;Contrada Pradellano;memorialplaque
3938156843;Unnamed;46.0649495;11.508052;POINT (11.508052 46.0649495);;;
4005264317;Unnamed;46.1084589;11.1245416;POINT (11.1245416 46.1084589);;;
4016816832;Unnamed;46.1930559;11.3335295;POINT (11.3335295 46.1930559);plaque;;memorialplaque
4030361301;Unnamed;46.0009382;10.6942676;POINT (10.6942676 46.0009382);;;
4030361320;Unnamed;46.0012367;10.6945656;POINT (10.6945656 46.0012367);;;
4030361322;Unnamed;46.0013211;10.6944492;POINT (10.6944492 46.0013211);;;
4030361328;Unnamed;46.0015521;10.6945221;POINT (10.6945221 46.0015521);;;
4041680975;Osservatorio Grota de Rinalt;45.8763077;10.6898397;POINT (10.6898397 45.8763077);;;
4054936848;Clementino Vannetti;45.890771;11.0439965;POINT (11.0439965 45.890771);bust;;monumentbust
4055023345;Unnamed;46.0347084;11.2207088;POINT (11.2207088 46.0347084);;;
4171979707;Unnamed;45.9273943;10.8908724;POINT (10.8908724 45.9273943);;;
4239816964;Monumento ai caduti;45.9288209;11.0721352;POINT (11.0721352 45.9288209);;;
4252859772;Unnamed;46.4681719;11.8697733;POINT (11.8697733 46.4681719);war_memorial;;memorialwar_memorial
4279079337;Unnamed;46.0702383;11.4937816;POINT (11.4937816 46.0702383);;;
4279079338;Unnamed;46.0703639;11.4939412;POINT (11.4939412 46.0703639);;;
4279079339;Unnamed;46.0704871;11.4939416;POINT (11.4939416 46.0704871);;;
4316268411;Giacomo Vittone;45.9298617;10.8259123;POINT (10.8259123 45.9298617);;;
4323671491;Unnamed;46.4720437;11.8721262;POINT (11.8721262 46.4720437);;;
4327010791;Castello della Rocca;46.0948327;11.2165482;POINT (11.2165482 46.0948327);;;
4339558197;Rest of Great War;46.3580059;11.7002477;POINT (11.7002477 46.3580059);;;
4349716077;Cippo di confine 1746;45.862019;10.8270187;POINT (10.8270187 45.862019);stone;Erectus anno 1746;memorialstone
4349718122;Memoriale Giacomo Cis;45.8762614;10.8382763;POINT (10.8382763 45.8762614);plaque;;memorialplaque
4361758843;Sass Spacà;46.1740483;11.5893364;POINT (11.5893364 46.1740483);;;
4369982157;Unnamed;45.8734092;10.7640777;POINT (10.7640777 45.8734092);stele;;memorialstele
4369982159;Unnamed;45.8712756;10.7593919;POINT (10.7593919 45.8712756);plaque;;memorialplaque
4369982160;Unnamed;45.8727102;10.7559409;POINT (10.7559409 45.8727102);plaque;;memorialplaque
4369982161;Unnamed;45.8727475;10.75698;POINT (10.75698 45.8727475);plaque;;memorialplaque
4370182331;Statua del Arrotino;46.154681;10.7661357;POINT (10.7661357 46.154681);;;
4375382430;Unnamed;45.8805042;10.7554119;POINT (10.7554119 45.8805042);stele;;memorialstele
4375382431;Unnamed;45.8854689;10.7430934;POINT (10.7430934 45.8854689);stele;;memorialstele
4375382434;Unnamed;45.8800617;10.7538121;POINT (10.7538121 45.8800617);stele;;memorialstele
4391080268;Unnamed;45.8912631;10.7896524;POINT (10.7896524 45.8912631);cross;;memorialcross
4396727344;Unnamed;45.8775069;10.7427751;POINT (10.7427751 45.8775069);stele;;memorialstele
4401768852;Unnamed;45.8995726;10.7246477;POINT (10.7246477 45.8995726);plaque;;memorialplaque
4401768853;Unnamed;45.900121;10.7252421;POINT (10.7252421 45.900121);plaque;;memorialplaque
4409784142;Lapide agli Alpini Caduti e Dispersi;45.8867182;10.8434444;POINT (10.8434444 45.8867182);plaque;;memorialplaque
4409784143;Unnamed;45.8867712;10.8434894;POINT (10.8434894 45.8867712);plaque;;memorialplaque
4409784144;Monumento agli Alpini caduti;45.886688;10.8436216;POINT (10.8436216 45.886688);stele;;memorialstele
4409784145;Lapide a ricordo del vecchio cimitero;45.8866693;10.8434443;POINT (10.8434443 45.8866693);plaque;;memorialplaque
4409784150;Unnamed;45.8867518;10.843445;POINT (10.843445 45.8867518);plaque;;memorialplaque
4414912269;Unnamed;45.8888534;10.7326866;POINT (10.7326866 45.8888534);plaque;;memorialplaque
4419124694;Madonna del Carega;45.7153644;11.125133;POINT (11.125133 45.7153644);;;
4426106994;Unnamed;45.8859551;10.7386935;POINT (10.7386935 45.8859551);plaque;;memorialplaque
4426106995;Unnamed;45.8828425;10.7492428;POINT (10.7492428 45.8828425);plaque;;memorialplaque
4426881828;Rachele Peterlini;45.886667;11.154397;POINT (11.154397 45.886667);;;
4429693864;Ettore Rover;46.0475502;11.4099402;POINT (11.4099402 46.0475502);plaque;Ettore Rover 1942 - 1972;memorialplaque
4429693865;Marco Pola;46.0493746;11.4082742;POINT (11.4082742 46.0493746);plaque;In questa casa nacque il poeta Marco Pola 29.08.1906 - 09.10.1991;memorialplaque
4432893261;Unnamed;45.9699572;10.7516121;POINT (10.7516121 45.9699572);;;
4466564545;Unnamed;46.1228987;11.4815;POINT (11.4815 46.1228987);plaque;;memorialplaque
4470115795;Unnamed;45.8910146;10.6989791;POINT (10.6989791 45.8910146);plaque;;memorialplaque
4470120545;Unnamed;45.8858771;10.7844239;POINT (10.7844239 45.8858771);plaque;;memorialplaque
4470120546;Unnamed;45.8858879;10.7844114;POINT (10.7844114 45.8858879);plaque;;memorialplaque
4517842661;Unnamed;45.7248028;10.9716913;POINT (10.9716913 45.7248028);;;
4534672934;Unnamed;45.7567476;11.0050057;POINT (11.0050057 45.7567476);;;
4558146280;Unnamed;45.7578358;11.0054258;POINT (11.0054258 45.7578358);;;
4561903463;Unnamed;46.1515842;11.0966066;POINT (11.0966066 46.1515842);;;
4572899501;Unnamed;46.0686953;11.4625157;POINT (11.4625157 46.0686953);plaque;;memorialplaque
4592617059;Cristo D'Oro;46.0840269;11.5154992;POINT (11.5154992 46.0840269);war_memorial;Ai Caduti di Turtte le Guerre - Il Gruppo ANA di Samone - 1961;memorialwar_memorial
4596373803;Unnamed;46.0520429;11.4944265;POINT (11.4944265 46.0520429);plaque;;memorialplaque
4684036779;Unnamed;46.0680604;11.4962593;POINT (11.4962593 46.0680604);;;
4692003969;Unnamed;45.857859;10.909995;POINT (10.909995 45.857859);stone;Ai combattenti;memorialstone
4692003970;Czechoslovak legionaries;45.854625;10.9106616;POINT (10.9106616 45.854625);plaque;;memorialplaque
4704863487;Unnamed;45.8745254;11.1064313;POINT (11.1064313 45.8745254);;;
4704863569;Unnamed;45.8760038;11.0881534;POINT (11.0881534 45.8760038);;;
4757121706;la Madoninna;45.9383193;11.096859;POINT (11.096859 45.9383193);statue;;memorialstatue
4765154173;Madonna;45.930732;11.0729663;POINT (11.0729663 45.930732);;;
4765154776;Immacolata della Guardia;45.907974;11.1312261;POINT (11.1312261 45.907974);statue;;memorialstatue
4890327745;Monumento della Pace;45.9176236;11.0313512;POINT (11.0313512 45.9176236);;;
4909085873;Santa Maria Goretti;45.9138797;11.1090938;POINT (11.1090938 45.9138797);;;
4913132148;Unnamed;46.1747411;11.8331643;POINT (11.8331643 46.1747411);plaque;;memorialplaque
4970035869;Unnamed;45.7667332;10.9341156;POINT (10.9341156 45.7667332);stone;R. ESERCITO ITALIANO;memorialstone
5000770882;Unnamed;46.0704206;10.5423516;POINT (10.5423516 46.0704206);plaque;;memorialplaque
5000770914;Unnamed;46.0717016;10.5412025;POINT (10.5412025 46.0717016);cross;;memorialcross
5036016186;Unnamed;45.9831577;10.8801419;POINT (10.8801419 45.9831577);;;
5036111244;I sentieri dell'amicizia;46.404962;11.825388;POINT (11.825388 46.404962);war_memorial;;memorialwar_memorial
5037259449;6° Alpini Battaglione Sette Comuni;46.0073283;11.5644902;POINT (11.5644902 46.0073283);;;
5068234115;Obelisco di Val Miniera;46.3377863;11.7584727;POINT (11.7584727 46.3377863);;;
5078806521;Monumento Legionari Cecoslovacchi;45.9258335;10.8892472;POINT (10.8892472 45.9258335);;;
5085148165;Unnamed;45.8693472;10.9105364;POINT (10.9105364 45.8693472);;;
5114871245;Unnamed;45.8845225;10.8411079;POINT (10.8411079 45.8845225);statue;;memorialstatue
5145424181;Castello di Pergine;46.0592803;11.2492931;POINT (11.2492931 46.0592803);;;
5248261677;Altare a Cesare Battisti;45.814725;11.1245826;POINT (11.1245826 45.814725);;;
5266511326;"Monumento ai ""Piloti di Montagna""";45.8811294;11.036181;POINT (11.036181 45.8811294);;Monumento ai piloti di montagna che hanno combattuto durante la seconda guerra mondiale;
5271597193;Monumento ai caduti della I° guerra mondiale;45.8554307;11.0600442;POINT (11.0600442 45.8554307);;;
5303540656;Targa d'ingresso di casa Ganarin;46.1169095;10.7572449;POINT (10.7572449 46.1169095);plaque;;memorialplaque
5310729531;Vecchio segnale di ingresso Sud del paese;46.1167909;10.7573585;POINT (10.7573585 46.1167909);plaque;;memorialplaque
5310729532;Vecchio segnale di ingresso Nord del paese;46.1186204;10.7589119;POINT (10.7589119 46.1186204);plaque;;memorialplaque
5375949317;Cannone Alpino;45.7583139;11.0085745;POINT (11.0085745 45.7583139);;;
5389468391;Pietra Miliare;45.7589351;10.9967911;POINT (10.9967911 45.7589351);;;
5389482524;Statua di Papa Giovanni XXIII;45.7565445;11.0007999;POINT (11.0007999 45.7565445);;;
5391147330;Capitello Antico;45.77051;11.0027339;POINT (11.0027339 45.77051);;;
5393716171;Unnamed;46.0631539;11.2415809;POINT (11.2415809 46.0631539);;;
5401488516;Unnamed;46.0844761;10.9191661;POINT (10.9191661 46.0844761);;;
5414546798;Ai Caduti;46.0400193;10.8755332;POINT (10.8755332 46.0400193);war_memorial;;memorialwar_memorial
5580427135;Unnamed;45.9893832;11.6657386;POINT (11.6657386 45.9893832);war_memorial;;memorialwar_memorial
5580611516;Unnamed;45.9906877;11.6688366;POINT (11.6688366 45.9906877);war_memorial;TEZZE AI SUOI CADUTI;memorialwar_memorial
5602471270;Monumento Gianni Caproni;45.9154683;10.8847481;POINT (10.8847481 45.9154683);;Gianni Caproni Pioniere dell'Aeronautica;
5633422584;Unnamed;46.1980753;11.2932693;POINT (11.2932693 46.1980753);;;
5647427114;Unnamed;45.8647695;10.8046394;POINT (10.8046394 45.8647695);stele;;memorialstele
5647579029;Unnamed;46.0673236;11.2455496;POINT (11.2455496 46.0673236);;;
5649181087;Unnamed;46.0667083;11.1604544;POINT (11.1604544 46.0667083);;;
5712367909;Monumento ai caduti;46.037736;11.1068344;POINT (11.1068344 46.037736);war_memorial;;memorialwar_memorial
5747778029;Castel Belvedere;46.1120109;11.238182;POINT (11.238182 46.1120109);;;
5749265914;Unnamed;46.3479941;10.7884602;POINT (10.7884602 46.3479941);war_memorial;;memorialwar_memorial
5761760124;Castel Cagnò;46.3888943;11.0369226;POINT (11.0369226 46.3888943);;;
5773580591;Unnamed;46.0741976;11.4905983;POINT (11.4905983 46.0741976);stele;;memorialstele
5812752537;Regole per i Jumper;45.9933548;10.9007299;POINT (10.9007299 45.9933548);;;
5853271710;Unnamed;46.0673382;11.2456154;POINT (11.2456154 46.0673382);;;
5865319476;Unnamed;46.0877376;11.295532;POINT (11.295532 46.0877376);;;
5898760565;Caduti Guerre Mondiale;45.889092;10.8615395;POINT (10.8615395 45.889092);;;
5968629885;Unnamed;46.1645545;10.7649519;POINT (10.7649519 46.1645545);war_memorial;;memorialwar_memorial
5968629886;Ai Caduti;46.1644632;10.7647356;POINT (10.7647356 46.1644632);war_memorial;;memorialwar_memorial
6021774388;Castello di Mostizzolo;46.3939367;11.0141545;POINT (11.0141545 46.3939367);;;
6090239908;Unnamed;46.2164418;11.1180186;POINT (11.1180186 46.2164418);;;
6091059026;Monumento ai caduti di Dimaro e Carciato;46.3263274;10.8762324;POINT (10.8762324 46.3263274);war_memorial;;memorialwar_memorial
6091068389;Monumento ai caduti;46.3219421;10.8720387;POINT (10.8720387 46.3219421);war_memorial;;memorialwar_memorial
6092537711;Unnamed;46.3258522;10.8745379;POINT (10.8745379 46.3258522);plaque;Qui dove nacque viva perenne la memoria di Giovanni Serra che alla cura delle malattie dei tropici dedicò studio e fatiche Dimaro 8.1.1894 Modena 2.10.1959 il Comune pose nel 1983;memorialplaque
6105527131;Monumento ai Caduti della Prima Guerra Mondiale;46.2369393;10.5812434;POINT (10.5812434 46.2369393);;;
6106678877;Monumento ai caduti di Agnedo;46.0512365;11.5303107;POINT (11.5303107 46.0512365);war_memorial;;memorialwar_memorial
6124676295;Monumento ai caduti;46.0439904;11.5506206;POINT (11.5506206 46.0439904);;;
6184192633;Unnamed;46.375437;11.0760534;POINT (11.0760534 46.375437);;;
6239423185;Unnamed;46.0062084;11.1281356;POINT (11.1281356 46.0062084);;;
6239423186;Unnamed;46.0062452;11.1281564;POINT (11.1281564 46.0062452);;;
6239423190;Don Dario Trentini;46.0064671;11.1277695;POINT (11.1277695 46.0064671);;;
6263951899;DUKW 25 MIA Americans 1945;45.8695117;10.8748777;POINT (10.8748777 45.8695117);stele;;memorialstele
6263951900;Col. William O. Darby;45.8695757;10.8749428;POINT (10.8749428 45.8695757);stele;;memorialstele
6304404726;Ai combattenti del XXIX° Reparto d'Assalto - 23/5/1918;45.8237311;11.052672;POINT (11.052672 45.8237311);yes;"AI COMBATTENTI 
DEL XXIX°
REPARTO D'ASSALTO
CHE QUI CADDERO
IL 23 - 5 - 1918";memorialyes
6341426155;Unnamed;46.141536;10.9652232;POINT (10.9652232 46.141536);;;
6534666053;Unnamed;45.8230859;10.9826348;POINT (10.9826348 45.8230859);plaque;1703 - 2003 Da qui passarono i francesi;memorialplaque
6604430824;Unnamed;45.9270165;10.8914006;POINT (10.8914006 45.9270165);;;
6611503195;Unnamed;46.3273616;10.7061037;POINT (10.7061037 46.3273616);plaque;Questa la casa avita di Giacomo Matteotti propugnò i diritti dei lavoratori affrontando consapevole il martirio oggi nel mondo intero simbolo di giustizia sociale e di libertà;memorialplaque
6620387292;Lon ai suoi caduti;46.0844752;10.9932699;POINT (10.9932699 46.0844752);war_memorial;;memorialwar_memorial
6634749766;Sito Ritrovamento Alpino;46.4011465;11.7919329;POINT (11.7919329 46.4011465);;;
6704376050;Unnamed;46.2813322;10.580416;POINT (10.580416 46.2813322);stone;AI CADUTI DELL'ALBIOLO E DELLA CADI';memorialstone
6724217636;Unnamed;46.0064892;11.1635562;POINT (11.1635562 46.0064892);war_memorial;A RICORDO / DEI SOLDATI / DEL 61° REGGIMENTO FANTERIA BRIGATA SICILIA / CHE QUI CADDERO COMBATTENDO / IL 25 LUGLIO 1866 / PER LA REDENZIONE DI TRENTO / I TRENTINI FINALMENTE REDENTI / QUESTO CIPPO VOLLERO / CONSACRATO / GIUGNO 1924;memorialwar_memorial
6726222588;La trincea 2425m;46.3440708;11.7301507;POINT (11.7301507 46.3440708);;;
6738014493;Castel Penede;45.8740886;10.8860791;POINT (10.8860791 45.8740886);;;
6751934834;Unnamed;45.7943952;11.1843284;POINT (11.1843284 45.7943952);;;
6751979044;Unnamed;45.7955799;11.1757536;POINT (11.1757536 45.7955799);;;
6751987676;Unnamed;45.7940249;11.1767313;POINT (11.1767313 45.7940249);;;
6774850960;Busto di Clementino Vannetti;45.8856609;11.0091832;POINT (11.0091832 45.8856609);bust;;monumentbust
6812119433;Unnamed;46.2048236;11.0860795;POINT (11.0860795 46.2048236);stele;UN REQUIEM O PASSEGGIERE PER LA VIRTUOSA GIOVANETTA MOTES LEONILDA, DA FAI CHE AI 26 SETEB 1895 DA CRUDEL MANO FU QUI ASSASSINATA NELA VERDE ETÀ D'ANI 15;memorialstele
6854160701;Unnamed;46.0074336;11.1294769;POINT (11.1294769 46.0074336);;;
6919175143;Gianantonio Manci;46.0695481;11.1238772;POINT (11.1238772 46.0695481);plaque;;memorialplaque
6919188295;Giovanni Peterlongo;46.0696406;11.1201547;POINT (11.1201547 46.0696406);plaque;;memorialplaque
7146805203;Unnamed;46.0064952;11.1279591;POINT (11.1279591 46.0064952);plaque;;memorialplaque
7146805204;Unnamed;46.0041359;11.1304091;POINT (11.1304091 46.0041359);plaque;"IN QUESTA CASA NACQUE GUIDO POLI
MEDAGLIA D'ORO CADUTO PER LA PATRIA
ADDI XX GIUGNO MCMXVII";memorialplaque
7146805207;Unnamed;46.0063534;11.1275202;POINT (11.1275202 46.0063534);plaque;"AL FANTE D'ITALIA CHE ENTRANDO PRIMO PER QUESTA VIA IL MEZZODÌ 3 NOVEMBRE 1918 FUGÒ LA BARBARIE AUSTRIACA E PORTÒ LA REDENZIONE
- IL PAESE -";memorialplaque
7252839012;Stele;45.7880045;10.9855048;POINT (10.9855048 45.7880045);stele;FC;memorialstele
7347505004;Unnamed;45.8911953;11.0349027;POINT (11.0349027 45.8911953);;;
7347567490;Unnamed;45.8910695;11.0351779;POINT (11.0351779 45.8910695);;;
7418607483;Erminio Azzolini;45.7572688;11.0205209;POINT (11.0205209 45.7572688);stone;Memoria del comandante dei Vigili del fuoco deceduto in incendio boschivo;memorialstone
7433417716;Statua a Padre Eusebio Chini;46.3064683;11.0754859;POINT (11.0754859 46.3064683);statue;;memorialstatue
7500454049;Tomaso Lorenzi Anzol 23 giugno 1962;46.1156978;10.7106211;POINT (10.7106211 46.1156978);;;
7500549336;Nicolò Collini;46.1177198;10.71583;POINT (10.71583 46.1177198);;;
7510041620;Unnamed;46.0467945;10.8876809;POINT (10.8876809 46.0467945);war_memorial;Monumento ai caduti;memorialwar_memorial
7644727580;Monumento ai caduti;45.8699882;11.0733351;POINT (11.0733351 45.8699882);;;
7661089441;Unnamed;46.4104775;10.8188369;POINT (10.8188369 46.4104775);stele;;memorialstele
7669722067;Unnamed;46.2853509;11.0375288;POINT (11.0375288 46.2853509);;;
7709872270;Monumento alle vittime della frana di Venzan;46.2876463;11.5293487;POINT (11.5293487 46.2876463);yes;ALLA MEMORIA dei 55 LAVORATORI TRAVOLTI nel FRANAMENTO avvenuto il GIORNO 19-1-1917 alle Ore 16:30;memorialyes
7782176089;Unnamed;46.4015689;10.8462057;POINT (10.8462057 46.4015689);;;
7836853940;Bruno Federspiel;46.3959778;11.7614436;POINT (11.7614436 46.3959778);;Bruno Federspiel 1903-1983;
7930996418;Unnamed;45.8973599;10.852296;POINT (10.852296 45.8973599);;;
7968757999;Unnamed;46.1168792;11.5465577;POINT (11.5465577 46.1168792);plaque;;memorialplaque
7986243372;Unnamed;45.9113172;10.8125873;POINT (10.8125873 45.9113172);;;
7994350189;Iscrizione;45.9009527;11.0205714;POINT (11.0205714 45.9009527);stele;;memorialstele
8010529588;Unnamed;45.9206051;10.889669;POINT (10.889669 45.9206051);;;
8024868062;caduti delle guerre;45.8495128;10.5759035;POINT (10.5759035 45.8495128);;;
8072204335;Unnamed;45.9140149;10.8456403;POINT (10.8456403 45.9140149);;;
8080814090;Monumento ai caduti di Croviana;46.3457486;10.9046208;POINT (10.9046208 46.3457486);war_memorial;;memorialwar_memorial
8168856642;Monumento ai caduti di Villa;46.0557041;11.5216709;POINT (11.5216709 46.0557041);war_memorial;;memorialwar_memorial
8231895105;Unnamed;45.9709159;10.9436231;POINT (10.9436231 45.9709159);;;
8394011847;Ranzo, ai suoi caduti;46.0639661;10.9430593;POINT (10.9430593 46.0639661);war_memorial;;memorialwar_memorial
8447541917;Unnamed;45.8847874;11.0178617;POINT (11.0178617 45.8847874);;;
8500637107;Unnamed;46.2077623;11.0912172;POINT (11.0912172 46.2077623);;;
8501370515;Cannone della Batteria Battisti;46.0729416;11.1133084;POINT (11.1133084 46.0729416);war_memorial;;memorialwar_memorial
8501370516;Cannone della Batteria Battisti;46.0729602;11.1133675;POINT (11.1133675 46.0729602);war_memorial;;memorialwar_memorial
8501370517;Cannone della Batteria Battisti;46.0729751;11.1134077;POINT (11.1134077 46.0729751);war_memorial;;memorialwar_memorial
8584485809;Unnamed;46.2475043;11.0262555;POINT (11.0262555 46.2475043);;;
8641598649;Unnamed;46.2225979;11.0828447;POINT (11.0828447 46.2225979);;;
8669878498;Unnamed;46.2581706;11.0326526;POINT (11.0326526 46.2581706);;;
8669878778;Unnamed;46.2568613;11.0372311;POINT (11.0372311 46.2568613);;;
8669878779;Unnamed;46.2495928;11.0473913;POINT (11.0473913 46.2495928);;;
8678727525;Unnamed;45.9947677;11.2172945;POINT (11.2172945 45.9947677);;;
8678741742;monumento ai caduti di Vattaro;45.9932153;11.2252235;POINT (11.2252235 45.9932153);war_memorial;;memorialwar_memorial
8712274647;Unnamed;46.236962;11.0330562;POINT (11.0330562 46.236962);;;
8733760706;Unnamed;46.0022158;11.223773;POINT (11.223773 46.0022158);;;
8740712310;Casa natale Santa Paolina;46.0064135;11.198931;POINT (11.198931 46.0064135);;;
8750410660;Unnamed;46.0052187;11.1953024;POINT (11.1953024 46.0052187);;;
8781408473;Monumento ai Caduti di Ville e Valternigo;46.1672361;11.158139;POINT (11.158139 46.1672361);;;
8806228526;Unnamed;45.8855112;10.8418535;POINT (10.8418535 45.8855112);;;
8841258257;Unnamed;45.8965654;10.7196536;POINT (10.7196536 45.8965654);;;
8841958362;Unnamed;45.8928622;10.7241795;POINT (10.7241795 45.8928622);;;
8867383963;Unnamed;45.8994078;10.7246216;POINT (10.7246216 45.8994078);plaque;;memorialplaque
8867383964;Unnamed;45.8991463;10.7246886;POINT (10.7246886 45.8991463);plaque;;memorialplaque
8901885521;Unnamed;45.9035509;10.6724348;POINT (10.6724348 45.9035509);;;
8976347881;Unnamed;45.9418047;10.8853646;POINT (10.8853646 45.9418047);;;
8993502909;Unnamed;46.2985866;11.8052722;POINT (11.8052722 46.2985866);;;
9006986500;Luigi Negrelli;46.1747632;11.8275899;POINT (11.8275899 46.1747632);statue;;memorialstatue
9019710264;Unnamed;45.9352121;10.970542;POINT (10.970542 45.9352121);;;
9025304483;Tenente Felix Hecht;45.932331;10.6917854;POINT (10.6917854 45.932331);stele;;memorialstele
9028928724;Unnamed;46.4104139;10.9683157;POINT (10.9683157 46.4104139);war_memorial;;memorialwar_memorial
9050069647;Unnamed;46.1477907;11.4881627;POINT (11.4881627 46.1477907);;;
9059539505;Unnamed;46.0526604;11.3356694;POINT (11.3356694 46.0526604);war_memorial;;memorialwar_memorial
9065748210;Unnamed;45.9570377;10.9045782;POINT (10.9045782 45.9570377);;;
9078565409;Unnamed;45.9510971;10.900975;POINT (10.900975 45.9510971);;;
9091051113;monumento ai caduti;46.3923724;11.1368501;POINT (11.1368501 46.3923724);;;
9125622460;Unnamed;45.8677531;10.8772512;POINT (10.8772512 45.8677531);;;
9135733179;Targa caduti slavina 1916;46.0795204;10.6126078;POINT (10.6126078 46.0795204);plaque;;memorialplaque
9144606449;Guides de Fassa;46.4765958;11.7414198;POINT (11.7414198 46.4765958);;;
9146936173;Unnamed;46.0964776;10.6011966;POINT (10.6011966 46.0964776);plaque;;memorialplaque
9157804244;Unnamed;46.0079373;10.9348803;POINT (10.9348803 46.0079373);;;
9423182183;Benedetti G.;45.8597259;10.9407899;POINT (10.9407899 45.8597259);war_memorial;;memorialwar_memorial
9425792640;Agli Alpini;46.1186102;11.6885562;POINT (11.6885562 46.1186102);obelisk;;memorialobelisk
9432228527;Unnamed;46.0111404;11.3024288;POINT (11.3024288 46.0111404);plaque;A MEMORIA / DEL GIORNO III NOVEMBRE MCMXVIII / ULTIMO DELLA SCHIAVITÙ / DEL TRENTINO / PRIMO DELLA NUOVA GRANDEZZA / D'ITALIA / LA CITTÀ DI LEVICO / ACCLAMANTE / ALL'ESERCITO LIBERATORE / POSE;memorialplaque
9432244934;Giulio Avancini;46.0112545;11.3023408;POINT (11.3023408 46.0112545);plaque;IN QUESTA CASA / NACQUE / GIULIO AVANCINI / ALPINO, VOLONTARIO DI GUERRA / CADUTO PER LA PATRIA / ADDÌ XVI - VII - MCMXV. / A.N.A. / GRUPPO / DI LEVICO / A. XIII;memorialplaque
9460735350;Colonna della Madonnina;45.9137009;11.1877146;POINT (11.1877146 45.9137009);;;
9466196704;"Capitello di S. Rocco o ""delle guardie""";45.9460725;10.9029744;POINT (10.9029744 45.9460725);;;
9466562491;lapide in ricordo di Don Giacomelli;46.2471944;11.6611892;POINT (11.6611892 46.2471944);;;
9530003077;Ex Cimitero Militare;46.2885204;11.5628697;POINT (11.5628697 46.2885204);cemetery;;memorialcemetery
9530030824;Ex Cimitero Militare;46.226671;11.5934941;POINT (11.5934941 46.226671);cemetery;;memorialcemetery
9535501985;monumento ai caduti;46.0532321;11.4938356;POINT (11.4938356 46.0532321);;;
9547365976;Unnamed;45.9419831;10.6774369;POINT (10.6774369 45.9419831);;;
9561237552;Unnamed;45.7782678;11.0145899;POINT (11.0145899 45.7782678);plaque;"MARANI ESULTANTE 
AL
PRODE GEN. CANTORE
CON ANIMO GRATO
24 GIUGNO 1923";memorialplaque
9623611542;madonnina;45.8762399;10.9303908;POINT (10.9303908 45.8762399);;;
9623744018;Maybe 1945;45.8945755;10.9207001;POINT (10.9207001 45.8945755);plaque;Aereo militare statunitense;memorialplaque
9645823021;famiglia Martini;45.9350135;11.0947092;POINT (11.0947092 45.9350135);plaque;;memorialplaque
9705325731;Unnamed;46.1385736;11.1185335;POINT (11.1185335 46.1385736);;2 ottobre 1809;
9790642399;Lapide Maria Andreatta;46.1791509;11.2977449;POINT (11.2977449 46.1791509);stone;;memorialstone
9796103964;Croce Anton Lazzeri;46.2088824;11.3510302;POINT (11.3510302 46.2088824);;;
9796136963;Croce Bruno Politzki;46.1905064;11.3661114;POINT (11.3661114 46.1905064);;;
9796983875;Unnamed;45.8695352;10.7788015;POINT (10.7788015 45.8695352);;;
9812767117;Unnamed;46.1893123;11.286208;POINT (11.286208 46.1893123);;Dario Giacomozzi;
9812767118;Unnamed;46.188333;11.2856168;POINT (11.2856168 46.188333);;Narciso Andreatta;
9817164614;Unnamed;46.1755428;11.8284244;POINT (11.8284244 46.1755428);;;
9840559601;Umberto Laezza;45.8848412;11.038695;POINT (11.038695 45.8848412);plaque;1957 - 2015 Qui con i suoi amici istante dopo istante eroi;memorialplaque
9893557583;Unnamed;46.3999044;11.0045014;POINT (11.0045014 46.3999044);war_memorial;;memorialwar_memorial
9942573357;Unnamed;45.8813153;10.7515845;POINT (10.7515845 45.8813153);war_memorial;;memorialwar_memorial
9965338367;Unnamed;45.8717159;10.7744604;POINT (10.7744604 45.8717159);plaque;"In questa casa nacque
addì 17 aprile 1798
ANDREA MAFFEI
poeta e filosofo insigne
patriota sincero

I cittadini di Molina redenta
grati e memori del nobile esempio
a imperitura memoria
1920";memorialplaque
9967136087;Unnamed;45.8711095;10.7751932;POINT (10.7751932 45.8711095);plaque;;memorialplaque
9969540562;Monumento a Giovanni Battista Righi;46.2315412;10.8274202;POINT (10.8274202 46.2315412);bust;;memorialbust
9969872697;Unnamed;46.0732306;10.9790754;POINT (10.9790754 46.0732306);plaque;Amadio Faes;memorialplaque
9974359353;Unnamed;45.8703718;10.7721186;POINT (10.7721186 45.8703718);plaque;;memorialplaque
9982530994;Unnamed;46.3938263;11.1464058;POINT (11.1464058 46.3938263);;;
9983348719;El Ciuarol;45.8666104;10.7879299;POINT (10.7879299 45.8666104);;"El Ciuarol
Maestro di lavoro e di vita";
10039737762;Andreas Hofer;46.1384886;11.1182848;POINT (11.1182848 46.1384886);;;
10156538101;Unnamed;46.1115666;11.1710709;POINT (11.1710709 46.1115666);;;
10259107268;Unnamed;46.0137532;11.2979217;POINT (11.2979217 46.0137532);;;
10268577721;Unnamed;46.0489526;10.8739427;POINT (10.8739427 46.0489526);;;
10284696206;Unnamed;45.9755274;11.5963697;POINT (11.5963697 45.9755274);plaque;Minati Adriano ...etc...;memorialplaque
10561669462;Unnamed;45.912064;11.230753;POINT (11.230753 45.912064);;;
10574663066;Unnamed;46.1072449;11.1039349;POINT (11.1039349 46.1072449);plaque;Bernardino Rossi;memorialplaque
10694782481;150° C. Alpini;45.8210273;10.9787279;POINT (10.9787279 45.8210273);;;
10721716573;Unnamed;46.1250436;11.1175069;POINT (11.1175069 46.1250436);war_memorial;;memorialwar_memorial
10743822350;Unnamed;46.2925392;11.5080573;POINT (11.5080573 46.2925392);sculpture;;memorialsculpture
10870040228;Unnamed;46.0751677;11.0027526;POINT (11.0027526 46.0751677);war_memorial;1915-1918 - Im Gedenken an unsere Tiroler Standschützen;memorialwar_memorial
10883748382;Terzo Mistero Gauduioso: la Natività;46.0950673;11.2337096;POINT (11.2337096 46.0950673);statue;;memorialstatue
10883748386;Quarto Mistero Gaudioso: Presentazione al Tempio;46.0946409;11.232976;POINT (11.232976 46.0946409);statue;;memorialstatue
10905218488;Unnamed;46.0684502;11.1190432;POINT (11.1190432 46.0684502);;Per Agitu, per tutte le donne vitime di violenza. Trento non dimentica;
10917670306;Caduti in Venezia Giulia e Dalmazia;46.066606;11.1259405;POINT (11.1259405 46.066606);plaque;;memorialplaque
10917670307;Divisione Acqui;46.066232;11.1257303;POINT (11.1257303 46.066232);plaque;;memorialplaque
10917670311;Unnamed;46.065802;11.1249299;POINT (11.1249299 46.065802);sculpture;Il lavoro è per l'uomo e non l'uomo per il lavoro;memorialsculpture
10924190730;Unnamed;46.1083514;11.142084;POINT (11.142084 46.1083514);war_memorial;;memorialwar_memorial
10933996782;Pedretti Lino;46.040916;10.5017981;POINT (10.5017981 46.040916);;Pedretti Lino;
10933996783;stele 5 luglio 1915;46.040885;10.5009391;POINT (10.5009391 46.040885);war_memorial;5 luglio 1915 - ai fratelli d'arma;memorialwar_memorial
10968840680;FAR 149 BATT 5 1918;45.8898631;10.9224968;POINT (10.9224968 45.8898631);stele;;memorialstele
10969373218;Alessandro Spagolla;46.0534629;11.4573591;POINT (11.4573591 46.0534629);stele;in questa casa nacque e visse il garibaldino Alessandro Spagolla;memorialstele
10989708456;Palazzo a Prato;46.1829606;11.2509763;POINT (11.2509763 46.1829606);;;
10991708175;Ciao Silvano;46.0065937;10.7700972;POINT (10.7700972 46.0065937);campana_del_vento;Silvano Fedel;memorialcampana_del_vento
11006215993;Unnamed;46.0749295;11.3020644;POINT (11.3020644 46.0749295);war_memorial;;memorialwar_memorial
11007033090;Unnamed;46.4093866;11.1678391;POINT (11.1678391 46.4093866);plaque;;memorialplaque
11007033096;Unnamed;46.4092818;11.1674898;POINT (11.1674898 46.4092818);plaque;;memorialplaque
11010866042;Leggenda del Bus de Vela;46.0666311;11.1216208;POINT (11.1216208 46.0666311);stone;Apriti o croz che i renderei mi sono addos;memorialstone
11017964911;Francesco de Gerloni;46.0706637;11.1297678;POINT (11.1297678 46.0706637);plaque;;memorialplaque
11017964912;Damiano Chiesa;46.0706514;11.1297264;POINT (11.1297264 46.0706514);plaque;[segue] Qui condannato a morte dal tribunale di guerra dell'XI Armata austriaca il 19 maggio del 1916;memorialplaque
11017964913;Cesare Battisti;46.0706605;11.1297764;POINT (11.1297764 46.0706605);plaque;;memorialplaque
11037124962;Unnamed;45.94942;11.2037969;POINT (11.2037969 45.94942);;;
11054811552;San Maurizio;46.4301752;11.8161017;POINT (11.8161017 46.4301752);statue;;memorialstatue
11135786365;Piercarlo Bordin;46.2817165;10.937293;POINT (10.937293 46.2817165);;;
11140711171;Gianni Kaisermann;46.2435032;10.9190175;POINT (10.9190175 46.2435032);stone;;memorialstone
11158539696;Terlago ai suoi caduti;46.0974603;11.0454426;POINT (11.0454426 46.0974603);war_memorial;;memorialwar_memorial
11163209355;Stele commemorativa della strada militare di val Regana (sett. 1917);46.2027649;11.637589;POINT (11.637589 46.2027649);stele;8° Alpini B.ne Val. Natisone. La 216a compagnia trasse la strada fino a quota 2848 munì le inviolabili cime del massiccio d'Asta. Sett. 1917;memorialstele
11175560212;Unnamed;46.0587684;11.1272696;POINT (11.1272696 46.0587684);plaque;;memorialplaque
11182801201;Unnamed;46.1247326;11.6676387;POINT (11.6676387 46.1247326);plaque;"Quì vola l'anima del dott. Rino Ballerin ideatore del ""Trodo Dei Fiori"" 1922-2008";memorialplaque
11209855744;lapide;45.8520889;10.9070535;POINT (10.9070535 45.8520889);stone;;memorialstone
11209855745;lapide;45.8521141;10.9071182;POINT (10.9071182 45.8521141);stone;;memorialstone
11209855746;lapide;45.8521651;10.9071221;POINT (10.9071221 45.8521651);stone;;memorialstone
11224446463;Lapide di Marco Apuleio;46.071239;11.1149827;POINT (11.1149827 46.071239);plaque;;memorialplaque
11244181412;Unnamed;46.0621204;11.23763;POINT (11.23763 46.0621204);;;
11276083822;Memoriale dei serbi;45.9122456;10.9779981;POINT (10.9779981 45.9122456);war_memorial;"Prima guerra mondiale
1914-1918
Cimitero dei Serbi
alla e per la memoria";memorialwar_memorial
11409644521;Unnamed;45.8894414;10.6705476;POINT (10.6705476 45.8894414);plaque;"Magazzino d'armi e viveri
dell'esercito 
napoleonico.
Waffen und
provianzlager
vom napoleonichen heer";memorialplaque
11409644524;Unnamed;45.8898037;10.6713777;POINT (10.6713777 45.8898037);plaque;"ANTICA CASA MERCANTILE
DELLA REPUBBLICA
DI VENEZIA
ALTES HANDELSHAUS
DER
VENETIANICHEN REPUBLIK";memorialplaque
11409644550;Unnamed;45.8902539;10.6721748;POINT (10.6721748 45.8902539);plaque;"IN QUESTA CASA NACQUE E SI SPENSE
COSTANTINO RIBAGA
LAUREATO IN SCIENZE NATURALI
FU INSIGNE STUDIOSO DI
ENTOMOLOGIA ALLE UNIVERSITA' DI
WIENNA NAPOLI E FIRENZE SCOPRI' E
DETTE IL NOME A SPECIE NUOVE DI INSETTI
1870 - 1945";memorialplaque
11409657469;Unnamed;45.8904308;10.6725068;POINT (10.6725068 45.8904308);plaque;"QUI NACQUE NEL 1800
MARTINO RIBAGA
DETTO IL GIGANTE DEI BARCHI
ALTO SEI PIEDI E MEZZO SOLLEVAVA UN
SOMARO CARICO DI SACCHI DI GRANO
CADUTO IN MANO A UNO SPECULATORE
FU PORTATO AD ESIBIRSI IN TUTTA EUROPA
MORI' IN FRANCIA A SOLI 23 ANNI";memorialplaque
11418357088;Unnamed;46.3091448;10.7419963;POINT (10.7419963 46.3091448);;;
11435107932;Monumento ai caduti;46.0786005;10.7197862;POINT (10.7197862 46.0786005);;;
11449067646;Unnamed;45.9675365;11.3561165;POINT (11.3561165 45.9675365);war_memorial;;memorialwar_memorial
11457474194;Lapide;45.8578405;10.9099672;POINT (10.9099672 45.8578405);stone;Maddalena Mario;memorialstone
11457474195;Lapide;45.8578466;10.9099834;POINT (10.9099834 45.8578466);stone;Bontadi Ivo;memorialstone
11497450547;Unnamed;45.8937348;10.6862978;POINT (10.6862978 45.8937348);war_memorial;Tiarno per la pace;memorialwar_memorial
11505365811;Unnamed;45.9487745;10.6460831;POINT (10.6460831 45.9487745);;;
11519263051;Unnamed;45.8992556;10.7252618;POINT (10.7252618 45.8992556);plaque;;memorialplaque
11521761384;Unnamed;46.0698372;11.667561;POINT (11.667561 46.0698372);war_memorial;;memorialwar_memorial
11533207349;Unnamed;45.9118903;10.7262264;POINT (10.7262264 45.9118903);plaque;"GARIBALDI
FIN QUI GIUNSE
PER OSSERVARE
LA FUGA
DEGLI AUSTRO-CROATI
SCONFITTI A BEZZECCA";memorialplaque
11577699809;Pietra d'inciampo Remo Ballardini;45.8869654;10.8423177;POINT (10.8423177 45.8869654);stolperstein;"QUI LAVORAVA
REMO BALLARDINI
NATO 1892
ARRESTATO 28.6.1944
MORTO IN SEGUITO
19.10.1944
RIVA DEL GARDA";memorialstolperstein
11577699810;Pietra d'inciampo Eugenio Impera;45.8859585;10.8459595;POINT (10.8459595 45.8859585);stolperstein;"QUI ABITAVA
EUGENIO IMPERA
NATO 1925
ASSASSINATO 28.6.1944
RIVA DEL GARDA";memorialstolperstein
11577699823;Pietra d'inciampo Antonio Gambaretto;45.8874784;10.8466311;POINT (10.8466311 45.8874784);stolperstein;"QUI LAVORAVA
ANTONIO GAMBARETTO
NATO 1913
ASSASSINATO 28.6.1944
RIVA DEL GARDA";memorialstolperstein
11577699824;Pietra d'inciampo Enrico Meroni;45.8890643;10.844778;POINT (10.844778 45.8890643);stolperstein;"QUI ABITAVA
ENRICO MERONI
NATO 1925
ASSASSINATO 28.6.1944
RIVA DEL GARDA";memorialstolperstein
11577699833;Pietra d'inciampo Augusto Betta;45.8868531;10.8437202;POINT (10.8437202 45.8868531);stolperstein;"QUI ABITAVA
AUGUSTO BETTA
NATO 1899
ASSASSINATO 28.6.1944
RIVA DEL GARDA";memorialstolperstein
11577699834;Pietra d'inciampo Gastone Franchetti;45.8872631;10.8447041;POINT (10.8447041 45.8872631);stolperstein;"QUI LAVORAVA
GASTONE FRANCHETTI
NATO 1920
ARRESTATO 29.6.1944
FUCILATO 29.8.1944
BOLZANO";memorialstolperstein
11577699850;Pietra d'inciampo Vincenzo Cicala;45.88627;10.8392266;POINT (10.8392266 45.88627);stolperstein;"QUI ABITAVA
VINCENZO CICALA
NATO 1886
ARRESTATO 12.9.1944
DEPORTATO
MAUTHAUSEN
ASSASSINATO 29.1.1945
MELK";memorialstolperstein
11577699851;Pietra d'inciampo Antonio Bosco;45.8854471;10.8388046;POINT (10.8388046 45.8854471);stolperstein;"QUI ABITAVA
ANTONIO BOSCO
NATO 1914
ARRESTATO 29.6.1944
FUCILATO 24.8.1944
BOLZANO";memorialstolperstein
11708140507;Unnamed;46.0082117;11.1536064;POINT (11.1536064 46.0082117);;;
11727717091;Contrada della Terra;45.8879663;11.0452307;POINT (11.0452307 45.8879663);plaque;;memorialplaque
11727732392;Damiano Chiesa;45.8887281;11.0451548;POINT (11.0451548 45.8887281);plaque;;memorialplaque
11727732393;Antonio Rosmini;45.888775;11.0454045;POINT (11.0454045 45.888775);plaque;;memorialplaque
11727732394;Vicolo Di San Giuseppe;45.8885957;11.0454648;POINT (11.0454648 45.8885957);plaque;;memorialplaque
11775248762;Unnamed;45.9228863;10.9025175;POINT (10.9025175 45.9228863);;;
11801502227;Gambaretto Loredana;45.7566886;10.9264559;POINT (10.9264559 45.7566886);plaque;;memorialplaque
11901101342;Unnamed;45.916682;10.9229177;POINT (10.9229177 45.916682);;;
11907019915;Unnamed;45.9049368;10.9298318;POINT (10.9298318 45.9049368);war_memorial;;memorialwar_memorial
11955696873;Unnamed;45.8902631;10.9502991;POINT (10.9502991 45.8902631);;;
11985780768;Unnamed;45.6991721;11.1353309;POINT (11.1353309 45.6991721);cross;;memorialcross
11985797571;Unnamed;45.7018279;11.1348715;POINT (11.1348715 45.7018279);plaque;Lavagnoli Mirco|6-8-1973|6-12-2003|Signore Mia Roccia|Salmo 17,3;memorialplaque
11998445502;Unnamed;45.8685413;10.9373459;POINT (10.9373459 45.8685413);plaque;;memorialplaque
12016544617;Unnamed;45.8860009;10.8229495;POINT (10.8229495 45.8860009);cross;;memorialcross
12039274247;Unnamed;45.8660627;10.9544821;POINT (10.9544821 45.8660627);;;
12062827538;Unnamed;46.4344287;11.8509724;POINT (11.8509724 46.4344287);plaque;A Paul Grohmann, Angelo e Fulgenzio Dimai. CLI Alpinisti Fassaini. 28-9-1864 - 28-9-1964;memorialplaque
12062827539;Marmolèda, Ponta Penia, 1864-2014;46.434428;11.8509711;POINT (11.8509711 46.434428);plaque;;memorialplaque
12062827540;Unnamed;46.4342981;11.8505584;POINT (11.8505584 46.4342981);plaque;1915-1918|Im gedenken an unsere Tiroler Standschützen|In ricordo del nostri Standschützen Tirolesi|En record de nosc Scizeri di Tirol|In memory of our Tyrolean Standschützen;memorialplaque
12073678538;Unnamed;45.9342199;11.2270754;POINT (11.2270754 45.9342199);stele;;memorialstele
12112123446;Unnamed;45.8195663;10.9668138;POINT (10.9668138 45.8195663);;;
12124704447;Unnamed;46.4302058;11.8161744;POINT (11.8161744 46.4302058);war_memorial;battaglioni alpini mobilitati e costituiti durante la guerra 1915-1918;memorialwar_memorial
12149287051;Vinicio Della Vecchia, Don Bartolomeo Del Bianco;46.4514488;11.6361882;POINT (11.6361882 46.4514488);plaque;;memorialplaque
12151195723;Madonnina del Piva;46.2401453;11.5293372;POINT (11.5293372 46.2401453);statue;Madonnina del Piva;memorialstatue
12183880871;Unnamed;45.8079607;10.9707918;POINT (10.9707918 45.8079607);;;
12184181387;Piccola croce con targa dedicata ad un ragazzo;45.71949;11.12365;POINT (11.12365 45.71949);cross;;memorialcross
12200968419;Unnamed;45.8127242;10.999036;POINT (10.999036 45.8127242);plaque;"MCMXVI
R.ESERCITO ITALIANO
I^ARMATA";memorialplaque
12208681053;Unnamed;45.8185939;10.9573813;POINT (10.9573813 45.8185939);plaque;;memorialplaque
12262911906;Unnamed;46.0974652;11.0454408;POINT (11.0454408 46.0974652);war_memorial;;memorialwar_memorial
12294506973;Unnamed;46.061831;10.9903628;POINT (10.9903628 46.061831);obelisk;;memorialobelisk
12307440121;San Giovanni Nepomuceno;46.1463144;10.7695816;POINT (10.7695816 46.1463144);statue;;memorialstatue
12348952481;Chimera Evoluzione;46.06787;11.1501198;POINT (11.1501198 46.06787);vehicle;First Race Car of E-Agle Trento Racing Team, Chimera Evoluzione;memorialvehicle
12367724257;Unnamed;46.06782;11.1275792;POINT (11.1275792 46.06782);;;
12385238036;Unnamed;46.0388276;11.1865181;POINT (11.1865181 46.0388276);plaque;;memorialplaque
12425691213;Lupi di Toscana;45.9325725;10.5740699;POINT (10.5740699 45.9325725);;;
12471058962;Fedele Dauriz;46.1652816;11.0593307;POINT (11.0593307 46.1652816);sculpture;In ricordo di Fedele Dauriz che tanto ha amato queste montagne 30-11-1958 / 07-12-2021;memorialsculpture
12500322833;Unnamed;46.0535643;11.4546237;POINT (11.4546237 46.0535643);plaque;;memorialplaque
12500352424;Unnamed;46.0536309;11.4585362;POINT (11.4585362 46.0536309);plaque;;memorialplaque
12512200415;Unnamed;46.0534287;11.4563727;POINT (11.4563727 46.0534287);plaque;;memorialplaque
